[
  { "id":"KR_SEOUL",    "name":"서울 지점",       "name_en":"Seoul Branch",
    "region":"korea",   "country":"KR", "flag":"🇰🇷",
    "address":"13-40, Songdogwahak-ro 16beon-gil, Yeonsu-gu, Incheon",
    "phone":"+82-2-681-3456", "fax":"+82-2-611-3451", "lat":37.3896, "lng":126.6520 },
  { "id":"KR_DAEGU",    "name":"대구 사무소",      "name_en":"Daegu Office",
    "region":"korea",   "country":"KR", "flag":"🇰🇷",
    "address":"559, Dalseo-daero, Dalseo-gu, Daegu (ENC InnoBiz Tower 710호)",
    "phone":"+82-53-600-8909", "fax":"+82-53-600-8911", "lat":35.8342, "lng":128.5325 },
  { "id":"KR_CHEONAN",  "name":"천안 사무소",      "name_en":"Cheonan Office",
    "region":"korea",   "country":"KR", "flag":"🇰🇷",
    "address":"23, Buldang 17-gil, Seobuk-gu, Cheonan-si (Crystal Plaza 305호)",
    "phone":"+82-41-417-0985", "fax":"+82-41-417-0986", "lat":36.8151, "lng":127.1139 },
  { "id":"KR_BUSAN",    "name":"부산 사무소",      "name_en":"Busan Office",
    "region":"korea",   "country":"KR", "flag":"🇰🇷",
    "address":"248, Gamjeoncheon-ro, Sasang-gu, Busan",
    "phone":"+82-51-314-0985", "fax":"+82-51-314-0976", "lat":35.1509, "lng":128.9875 },
  { "id":"KR_CHANGWON", "name":"창원 사무소",      "name_en":"Changwon Office",
    "region":"korea",   "country":"KR", "flag":"🇰🇷",
    "address":"161, Yongji-ro, Uichang-gu, Changwon-si (경남빌딩 705호)",
    "phone":"+82-55-275-0985", "fax":"+82-55-261-0986", "lat":35.2272, "lng":128.6811 },
  { "id":"CN_QD",       "name":"QINGDAO YG-1 CUTTING TOOL CO., LTD", "name_en":"Qingdao YG-1 Cutting Tool",
    "region":"china",   "country":"CN", "flag":"🇨🇳",
    "address":"NO. 3 New York Road, Qingdao Free Trade Zone, China",
    "phone":"+86-532-8676-9779", "email":"china-sales@yg1.kr", "lat":36.0671, "lng":120.3826 },
  { "id":"CN_SH",       "name":"YG-1 TOOL SOLUTIONS CO., LTD.", "name_en":"YG-1 Tool Solutions Shanghai",
    "region":"china",   "country":"CN", "flag":"🇨🇳",
    "address":"No.518 Fuquan North Road, Hongqiao Int'l Business Park, Changning, Shanghai",
    "phone":"+86-21-5283-6816", "email":"service@yg1-toolsolutions.cn", "lat":31.1941, "lng":121.3564 },
  { "id":"AS_IN",       "name":"YG-1 INDUSTRIES (India)", "name_en":"YG-1 Industries India",
    "region":"asia",    "country":"IN", "flag":"🇮🇳",
    "address":"KIADB Industrial Area Phase III, Doddaballapura, Bengaluru-561203",
    "phone":"+91-80-22044620", "email":"marketing@yg1india.com", "lat":13.2956, "lng":77.5371 },
  { "id":"AS_JP",       "name":"YG-1 JAPAN CO., LTD.", "name_en":"YG-1 Japan",
    "region":"asia",    "country":"JP", "flag":"🇯🇵",
    "address":"Shinosaka No.2 DOI BLDG. 2-14-6 Nishinakajima, Yodogawa-ku, Osaka 532-0011",
    "phone":"+81-6-6305-9897", "email":"t-kitaoka8@yg1.jp", "lat":34.7333, "lng":135.4951 },
  { "id":"AS_SG",       "name":"YG-1 TOOLS ASIA PTE. LTD.", "name_en":"YG-1 Tools Asia Singapore",
    "region":"asia",    "country":"SG", "flag":"🇸🇬",
    "address":"Block 3007 Ubi Road 1, #02-416, SINGAPORE 408701",
    "phone":"+65-6842-0468", "email":"yg1toolsasia@yg1.co.kr", "lat":1.3290, "lng":103.8990 },
  { "id":"AS_VN",       "name":"YG-1 VIETNAM CO., LTD.", "name_en":"YG-1 Vietnam",
    "region":"asia",    "country":"VN", "flag":"🇻🇳",
    "address":"Floor 7th, HEID building, Lane 6A, Thanh Cong, Ba Dinh, Hanoi",
    "phone":"+84-24-3795-7233", "email":"bbak98@yg1.co.kr", "lat":21.0285, "lng":105.8412 },
  { "id":"AS_TH",       "name":"YG-1 (THAILAND) CO., LTD.", "name_en":"YG-1 Thailand",
    "region":"asia",    "country":"TH", "flag":"🇹🇭",
    "address":"88 Nimitkul Building 5F, Soi Rama IX 57/1, Suanluang, Bangkok 10250",
    "phone":"+66-2-370-4945", "email":"cherdchai@yg1.co.th", "lat":13.7563, "lng":100.5018 },
  { "id":"AS_AU",       "name":"YG-1 AUSTRALIA PTY. LTD.", "name_en":"YG-1 Australia",
    "region":"asia",    "country":"AU", "flag":"🇦🇺",
    "address":"Unit 11, 42-44 Garden Blvd. Dingley Village, Vic.3172",
    "phone":"+61-3-9558-0177", "email":"ygone@ygone.com.au", "lat":-37.9856, "lng":145.1277 },
  { "id":"AS_MY",       "name":"YG-1 (M) SDN. BHD.", "name_en":"YG-1 Malaysia",
    "region":"asia",    "country":"MY", "flag":"🇲🇾",
    "address":"LOT 13A-2 & 15-2, UOA Business Park, Jalan Pengaturcara U1/51A, Shah Alam, Selangor",
    "phone":"+603-5569-9511", "email":"", "lat":3.0738, "lng":101.5183 },
  { "id":"AS_ID",       "name":"PT. YGI TOOLS", "name_en":"PT YGI Tools Indonesia",
    "region":"asia",    "country":"ID", "flag":"🇮🇩",
    "address":"Ruko Ruby Commercial Blok TB23 & TB25, JL.Boulevard Selatan, Summarecon Bekasi",
    "phone":"+62-21-8946-0074", "email":"", "lat":-6.2297, "lng":107.0087 },
  { "id":"AS_AE",       "name":"YG-1 Middle East FZE", "name_en":"YG-1 Middle East",
    "region":"asia",    "country":"AE", "flag":"🇦🇪",
    "address":"Sharjah Airport Int'l Free Zone, Building X2, Offices 28/29, Sharjah UAE",
    "phone":"+971-6-522-1419", "email":"CSR@yg1me.ae", "lat":25.3193, "lng":55.5172 },
  { "id":"AS_TR",       "name":"YG-1 KESICI TAKIMLAR", "name_en":"YG-1 Turkey",
    "region":"asia",    "country":"TR", "flag":"🇹🇷",
    "address":"Muradiye Mah. 14 Sk. Sanatkarlar Kooperatifi Sitesi No:19 Yunusemre/Manisa, Turkiye",
    "phone":"+90-216-504-8292", "email":"info@yg1.com.tr", "lat":38.6191, "lng":27.4305 },
  { "id":"EU_DE",       "name":"YG-1 DEUTSCHLAND GMBH", "name_en":"YG-1 Germany",
    "region":"europe",  "country":"DE", "flag":"🇩🇪",
    "address":"Rudolf-Diese-Str.12b, 65760 Eschborn/Taunus, Germany",
    "phone":"+49-6173-9667-0", "email":"info@yg-1.de", "lat":50.1426, "lng":8.5699 },
  { "id":"EU_FR",       "name":"YG-1 EUROPE SAS", "name_en":"YG-1 France",
    "region":"europe",  "country":"FR", "flag":"🇫🇷",
    "address":"Parc de l'Esplanade BAT. B1, 1 Rue Enrico Fermi, 77400 St. Thibault des Vignes",
    "phone":"+33-172-84-4070", "email":"yg1@yg1.eu", "lat":48.8566, "lng":2.7833 },
  { "id":"EU_ES",       "name":"herramientas YG-1 SL", "name_en":"YG-1 Spain",
    "region":"europe",  "country":"ES", "flag":"🇪🇸",
    "address":"C/ Nord, 22, 08329 Teia (Barcelona), Spain",
    "phone":"+34-938-297-275", "email":"ventas@yg-1.es", "lat":41.5085, "lng":2.3828 },
  { "id":"EU_PL",       "name":"YG-1 Poland", "name_en":"YG-1 Poland",
    "region":"europe",  "country":"PL", "flag":"🇵🇱",
    "address":"Ul. Gogolinska 29, Warszawa, 02-872, Poland",
    "phone":"+48-22-622-2586", "email":"info@yg-1.pl", "lat":52.2297, "lng":21.0122 },
  { "id":"AM_US",       "name":"YG-1 AMERICA INC.", "name_en":"YG-1 America",
    "region":"americas","country":"US", "flag":"🇺🇸",
    "address":"730 Corporate Woods Parkway, Vernon Hills, IL 60061, USA",
    "phone":"+1-847-634-3700", "email":"info@yg1usa.com", "lat":42.2211, "lng":-87.9506 },
  { "id":"AM_BR",       "name":"YG-1 Comercio de Ferramentas Ltda", "name_en":"YG-1 Brazil",
    "region":"americas","country":"BR", "flag":"🇧🇷",
    "address":"RUA ANTONIO MIORI, 275 - GALPAO 03 JARDIM SANTA BARBARA, ITUPEVA-SP",
    "phone":"+55-11-4496-2170", "email":"vendas@yg1.com.br", "lat":-23.1547, "lng":-47.0586 },
  { "id":"AM_CA_QC",    "name":"YG-1 CANADA QUEBEC (MINICUT INT'L)", "name_en":"YG-1 Canada Quebec",
    "region":"americas","country":"CA", "flag":"🇨🇦",
    "address":"8400 Boul. Du Golf, Anjou, Quebec, H1J 3A1",
    "phone":"+1-514-352-6464", "email":"sales@minicut.com", "lat":45.6012, "lng":-73.5596 },
  { "id":"AM_CA_ON",    "name":"YG-1 CANADA INC.", "name_en":"YG-1 Canada Ontario",
    "region":"americas","country":"CA", "flag":"🇨🇦",
    "address":"3375 North Service Road, Unit A8, Burlington, Ontario L7N 3G2",
    "phone":"+1-905-335-2500", "email":"orders@yg1.ca", "lat":43.3677, "lng":-79.8226 },
  { "id":"AF_ZA",       "name":"YG-1 South Africa", "name_en":"YG-1 South Africa",
    "region":"africa",  "country":"ZA", "flag":"🇿🇦",
    "address":"20 Van Wyk Road, Great North Industrial Park, Unit 17, Benoni",
    "phone":"+27-87-160-0779", "email":"yg1sales@yg1.co.za", "lat":-26.1880, "lng":28.3260 }
]
